
{
    "type": "FeatureCollection",
    "features" : [{
        "geometry" : {
            "type" : "Point",
            "coordinates": [-122.760277, 
            45.907669
            ]
        },
        "type": "Feature",
        "properties": {
            "category": "Home",
            "hours": "6am-9pm",
            "name": "Hamilton Drywall Products",
            "phone": "(877) 443 - 7683",
            "storeid": "01"
        }
    },
    {
        "geometry" : {
            "type" : "Point",
            "coordinates": [-122.929840,
            46.121690
            
            ]
        },
        "type": "Feature",
        "properties": {
            "category": "Hardware",
            "hours": "6am-9pm",
            "name": "Home Depot",
            "phone": "(360) 578-1030",
            "storeid": "02"
        }
        
    },
    {
        "geometry" : {
            "type" : "Point",
            "coordinates": [-122.599550,
            45.683920
            ]
        },
        "type": "Feature",
        "properties": {
            "category": "Hardware",
            "hours": "6am-9pm",
            "name": "Home Depot",
            "phone": "(360) 253-3993",
            "storeid": "03"
        }
    },

    {
        "geometry" : {
            "type" : "Point",
            "coordinates": [46.121690, 
            -122.929840
            ]
        },
        "type": "Feature",
        "properties": {
            "category": "Hardware",
            "hours": "6am-9pm",
            "name": "Home Depot",
            "phone": "(360) 578-1030",
            "storeid": "04"
        }
    }
] 
}